[
{"name": "Nasreddin İnadın Sonu", "url": "biletinial.com/tiyatro/nasreddin-inadin-sonu", "location": "Konya Devlet Tiyatrosu Sahnesi", "city": "Konya", "image": "https://d2yj4fhf636aio.cloudfront.net/Uploads/Films/nasreddin-inadin-sonu-20191122191537.jpg"},
{"name": "Filozof Ahmed", "url": "biletinial.com/tiyatro/filozof-ahmed", "location": "Üsküdar Stüdyo Sahnesi", "city": "İstanbul Anadolu", "image": "https://d2yj4fhf636aio.cloudfront.net/Uploads/Films/filozof-ahmed-2019102115565.jpg"},
{"name": "Vatan Yahut Namık Kemal", "url": "biletinial.com/tiyatro/vatan-yahut-namik-kemal", "location": "Oda Tiyatrosu", "city": "Ankara", "image": "https://d2yj4fhf636aio.cloudfront.net/Uploads/Films/vatan-yahut-namik-kemal-201992618335.jpg"},
{"name": "1919 Şafak", "url": "biletinial.com/tiyatro/1919-safak", "location": "İrfan Şahinbaş", "city": "Ankara", "image": "https://d2yj4fhf636aio.cloudfront.net/Uploads/Films/1919-safak-20191022142810.jpg"},
{"name": "Amak-ı Hayal", "url": "biletinial.com/tiyatro/amakı-hayal", "location": "Akün Sahnesi", "city": "Ankara", "image": "https://d2yj4fhf636aio.cloudfront.net/Uploads/Films/amak-i-hayal-201992701237.jpg"},
{"name": "Buzlar Çözülmeden", "url": "biletinial.com/tiyatro/buzlar-cozulmeden-dt", "location": "Altındağ Sahnesi", "city": "Ankara", "image": "https://d2yj4fhf636aio.cloudfront.net/Uploads/Films/buzlar-cozulmeden-2019928125612.jpg"},
{"name": "Reis Bey", "url": "biletinial.com/tiyatro/reis-bey-devlet-tiyatrolari", "location": "Büyük Tiyatro", "city": "Ankara", "image": "https://d2yj4fhf636aio.cloudfront.net/Uploads/Films/reis-bey-20191025143942.jpg"},
{"name": "Uçmak Hezarfen Ahmed Çelebi", "url": "biletinial.com/tiyatro/ucmak-hezarfen-ahmed-celebi", "location": "Cüneyt Gökçer Sahnesi", "city": "Ankara", "image": "https://d2yj4fhf636aio.cloudfront.net/Uploads/Films/ucmak-hezarfen-ahmed-celebi-2019111420753.jpg"},
{"name": "Kantocu", "url": "biletinial.com/tiyatro/kantocu-", "location": "Şinasi Sahnesi", "city": "Ankara", "image": "https://d2yj4fhf636aio.cloudfront.net/Uploads/Films/kantocu-201992623207.jpg"},
{"name": "Keşanlı Ali Destanı", "url": "biletinial.com/tiyatro/kesanli-ali-destani", "location": "Küçük Tiyatro", "city": "Ankara", "image": "https://d2yj4fhf636aio.cloudfront.net/Uploads/Films/kesanli-ali-destani-2019930191150.png"},
{"name": "Rüstemoğlu Cemal'in Tuhaf Hikayesi", "url": "biletinial.com/tiyatro/rustemoglu-cemalin-tuhaf-hikayesi", "location": "Adana Sabancı Kültür Merkezi", "city": "Adana", "image": "https://d2yj4fhf636aio.cloudfront.net/Uploads/Films/rustemoglu-cemalin-tuhaf-hikayesi-2019104135246.jpg"},
{"name": "Düdüklüde Kıymalı Bamya", "url": "biletinial.com/tiyatro/duduklude-kiymali-bamya", "location": "Üsküdar Tekel Sahnesi", "city": "İstanbul Anadolu", "image": "https://d2yj4fhf636aio.cloudfront.net/Uploads/Films/duduklude-kiymali-bamya-2019926215757.jpg"},
{"name": "Kendi Gök Kubbemiz Yahya Kemal", "url": "biletinial.com/tiyatro/kendi-gok-kubbemiz", "location": "Mecidiyeköy Büyük Sahnesi", "city": "İstanbul Avrupa", "image": "https://d2yj4fhf636aio.cloudfront.net/Uploads/Films/kendi-gok-kubbemiz-20191030233211.jpg"},
{"name": "Bay Z", "url": "biletinial.com/tiyatro/bay-z", "location": "Mecidiyeköy Stüdyo Sahne (140)", "city": "İstanbul Avrupa", "image": "https://d2yj4fhf636aio.cloudfront.net/Uploads/Films/bay-z-2019108145833.png"},
{"name": "Açık  Denizde", "url": "biletinial.com/tiyatro/acik-denizde-koray-tahir-on", "location": "Farabi Sahnesi", "city": "Ankara", "image": "https://d2yj4fhf636aio.cloudfront.net/Uploads/Films/acik-denizde-20191120131859.jpg"},
{"name": "Karmakarışık", "url": "biletinial.com/tiyatro/karmakarisik-dt", "location": "Cevahir Salon 1", "city": "İstanbul Avrupa", "image": "https://d2yj4fhf636aio.cloudfront.net/Uploads/Films/karmakarisik-2019926215222.jpg"},
{"name": "Şapka", "url": "biletinial.com/tiyatro/sapka", "location": "Ziraat Sahnesi", "city": "Ankara", "image": "https://d2yj4fhf636aio.cloudfront.net/Uploads/Films/sapka-2019111175722.jpg"},
{"name": "Arf Sabiti", "url": "biletinial.com/tiyatro/arf-sabiti", "location": "Konak Sahnesi", "city": "İzmir", "image": "https://d2yj4fhf636aio.cloudfront.net/Uploads/Films/arf-sabiti-201992623753.jpg"},
{"name": "Oğul", "url": "biletinial.com/tiyatro/ogul", "location": "Karşıyaka Sahnesi", "city": "İzmir", "image": "https://d2yj4fhf636aio.cloudfront.net/Uploads/Films/ogul-2019111516105.jpg"},
{"name": "Akşam Yemeği", "url": "biletinial.com/tiyatro/aksam-yemegi", "location": "Ahmet Vefik Paşa Bursa Devlet Tiyatrosu", "city": "Bursa", "image": "https://d2yj4fhf636aio.cloudfront.net/Uploads/Films/aksam-yemegi-2019112219021.jpg"},
{"name": "Bir Nefes Dede Korkut", "url": "biletinial.com/tiyatro/bir-nefes-dede-korkut", "location": "Stüdyo Sahnesi", "city": "Ankara", "image": "https://d2yj4fhf636aio.cloudfront.net/Uploads/Films/bir-nefes-dede-korkut-2019104192036.png"},
{"name": "Lena, Leyla ve Diğerleri", "url": "biletinial.com/tiyatro/lena-leyla-ve-dıgerlerı", "location": "Oda Tiyatrosu ", "city": "Diyarbakır", "image": "https://d2yj4fhf636aio.cloudfront.net/Uploads/Films/lena-leyla-ve-digerleri-201910119271.jpg"},
{"name": "Dördüncü Ay", "url": "biletinial.com/tiyatro/dorduncu-ay", "location": "Edirne DT", "city": "Edirne", "image": "https://d2yj4fhf636aio.cloudfront.net/Uploads/Films/dorduncu-ay-2019106204752.png"},
{"name": "Tene Ez (Sadece Ben) -  Teatra Jiyana Nü", "url": "biletinial.com/tiyatro/tene-ez-titf", "location": "Kültürpark-İzmir Sanat", "city": "İzmir", "image": "https://d2yj4fhf636aio.cloudfront.net/Uploads/Films/tene-ez-sadece-ben-teatra-jiyana-nu-20191118175340.jpg"},
{"name": "Yalnızlıkla Nasıl Savaşılır - Tiyatro Yan Etki", "url": "biletinial.com/tiyatro/yalnizlikla-nasil-savasilir-titf", "location": "Selahattin Akçiçek K.M. Avni Anıl Sahnesi", "city": "İzmir", "image": "https://d2yj4fhf636aio.cloudfront.net/Uploads/Films/yalnizlikla-nasil-savasilir-tiyatro-yan-etki-2019111817544.jpg"},
{"name": "Aşık Veysel Müzikali", "url": "biletinial.com/tiyatro/asik-veysel-muzikali-inhkm", "location": "NHKM İzmir- Konak Halk Sahnesi", "city": "İzmir", "image": "https://d2yj4fhf636aio.cloudfront.net/Uploads/Films/asik-veysel-muzikali-2019112910052.jpg"},
{"name": "Kel Kantocu", "url": "biletinial.com/tiyatro/kel-kantocu-yakin-tiyatro", "location": "Yakın Sahne", "city": "Ankara", "image": "https://d2yj4fhf636aio.cloudfront.net/Uploads/Films/kel-kantocu-2019123145845.jpg"},
{"name": "Nefertiti Silifkede", "url": "biletinial.com/tiyatro/nefertiti-silifkede-kats-sahne", "location": "Gayrettepe Kats Sahne", "city": "İstanbul Avrupa", "image": "https://d2yj4fhf636aio.cloudfront.net/Uploads/Films/nefertiti-silifkede-20191028102057.jpg"},
{"name": "Islık Çalan Kırmızı Başlıklı Kız", "url": "biletinial.com/tiyatro/islik-calan-kirmizi-baslikli-kiz-", "location": "Antalya K. M. Perge Salonu", "city": "Antalya", "image": "https://d2yj4fhf636aio.cloudfront.net/Uploads/Films/islik-calan-kirmizi-baslikli-kiz-20191017135345.jpg"},
{"name": "Papağan Kaçtı", "url": "biletinial.com/tiyatro/papagan-kacti", "location": "75 Yıl Sahnesi", "city": "Ankara", "image": "https://d2yj4fhf636aio.cloudfront.net/Uploads/Films/papagan-kactic-2019102142717.png"},
{"name": "Üç Şehzade", "url": "biletinial.com/tiyatro/uc-sehzade", "location": "Atapark Haluk Ongan Sahnesi", "city": "Trabzon", "image": "https://d2yj4fhf636aio.cloudfront.net/Uploads/Films/uc-sehzade-20191128173058.jpg"},
{"name": "Çizmeli Kedi", "url": "biletinial.com/tiyatro/cizmeli-kedi", "location": "Ziraat Sahnesi", "city": "Ankara", "image": "https://d2yj4fhf636aio.cloudfront.net/Uploads/Films/cizmeli-kedic-20191017152527.jpg"},
{"name": "Mavi Pullu Balık", "url": "biletinial.com/tiyatro/mavi-pullu-balik-dt", "location": "Akün Sahnesi", "city": "Ankara", "image": "https://d2yj4fhf636aio.cloudfront.net/Uploads/Films/mavi-pullu-balikc-20191014143525.jpg"},
{"name": "Yedi Kapılı Kent", "url": "biletinial.com/tiyatro/yedi-kapili-kent", "location": "Küçük Tiyatro", "city": "Ankara", "image": "https://d2yj4fhf636aio.cloudfront.net/Uploads/Films/yedi-kapili-kent-c-2019111111302.jpg"},
{"name": "Duvarların Ötesi", "url": "biletinial.com/tiyatro/duvarlarin-otesinde", "location": "Haller Gençlik Merkezi", "city": "Eskişehir", "image": "https://d2yj4fhf636aio.cloudfront.net/Uploads/Films/duvarlarin-otesi-201912315407.jpg"},
{"name": "Michelangelo", "url": "biletinial.com/tiyatro/michelangelo-sahnede", "location": "CerModern Sahnesi", "city": "Ankara", "image": "https://d2yj4fhf636aio.cloudfront.net/Uploads/Films/michelangelo-sahnede-2019108171055.jpg"},
{"name": "Kapıların Dışında", "url": "biletinial.com/tiyatro/kapilarin-disinda", "location": "Zübeyde Hanım Kültür Merkezi", "city": "Eskişehir", "image": "https://d2yj4fhf636aio.cloudfront.net/Uploads/Films/kapilarin-disinda-20191119103542.jpg"},
{"name": "Godot'yu Beklerken'i Beklerken", "url": "biletinial.com/tiyatro/godotyu-beklerkeni-beklerken", "location": "Antalya Haşim İşcan K.M  Küçük Salon", "city": "Antalya", "image": "https://d2yj4fhf636aio.cloudfront.net/Uploads/Films/godotyu-beklerkeni-beklerken-2019103120042.jpg"},
{"name": "Kaşıkçılar", "url": "biletinial.com/tiyatro/kasikcilar", "location": "Bornova KSM Bozkurt Kuruç Sahnesi", "city": "İzmir", "image": "https://d2yj4fhf636aio.cloudfront.net/Uploads/Films/kasikcilar-201910720374.jpg"},
{"name": "Gün Anneme Gebe Nefes", "url": "biletinial.com/tiyatro/gun-anneme-gebe-nefes", "location": "N.F.K. Sahnesi", "city": "Kahramanmaraş", "image": "https://d2yj4fhf636aio.cloudfront.net/Uploads/Films/gun-anneme-gebe-nefes-2019107134123.jpg"},
{"name": "Leyla ile Mecnun", "url": "biletinial.com/tiyatro/leyla-ile-mecnun-dt", "location": "Nurettin Ardıçoğlu Kültür Merkezi DT Sahnesi", "city": "Elazığ ", "image": "https://d2yj4fhf636aio.cloudfront.net/Uploads/Films/leyla-ile-mecnun-20191010134057.jpg"},
{"name": "Ben Ruhi Bey Nasılım", "url": "biletinial.com/tiyatro/ben-ruhi-bey-nasilim", "location": "Sahne Modda", "city": "İzmir", "image": "https://d2yj4fhf636aio.cloudfront.net/Uploads/Films/ben-ruhi-bey-nasilim-201912512336.jpg"},
{"name": "Kelebekler Özgürdür", "url": "biletinial.com/tiyatro/kelebekler-ozgurdur-kats-sahne", "location": "Gayrettepe Kats Sahne", "city": "İstanbul Avrupa", "image": "https://d2yj4fhf636aio.cloudfront.net/Uploads/Films/kelebekler-ozgurdur-20191028101347.jpg"},
{"name": "Garip", "url": "biletinial.com/tiyatro/garip-kulis-tiyatro", "location": "Kulis Sanat Tiyatrosu", "city": "Ankara", "image": "https://d2yj4fhf636aio.cloudfront.net/Uploads/Films/garip-201910621622.png"},
{"name": "Yazgı Paradoksu - Deney Atölyesi", "url": "biletinial.com/tiyatro/yazgi-paradoksu-deney-atolyesi-impro", "location": "İstanbulimpro Sahne", "city": "İstanbul Anadolu", "image": "https://d2yj4fhf636aio.cloudfront.net/Uploads/Films/yazgi-paradoksu-deney-atolyesi-20191122164228.jpg"},
{"name": "Kazı Kazan Hakkı", "url": "biletinial.com/tiyatro/kazi-kazan-hakki-sahne", "location": "Sahne 367", "city": "Ankara", "image": "https://d2yj4fhf636aio.cloudfront.net/Uploads/Films/kazi-kazan-hakki-20191031182152.jpg"},
{"name": "Siz Ne Dersiniz", "url": "biletinial.com/tiyatro/siz-ne-dersiniz", "location": "Küçükçekmece DT Sahnesi", "city": "İstanbul Avrupa", "image": "https://d2yj4fhf636aio.cloudfront.net/Uploads/Films/siz-ne-dersiniz-c-2019102414036.jpg"},
{"name": "Şair, Şiir, Şuur Mehmet Akif Ersoy", "url": "biletinial.com/tiyatro/sair-siir-suur", "location": "Feraizcizade Oda Tiyatrosu", "city": "Bursa", "image": "https://d2yj4fhf636aio.cloudfront.net/Uploads/Films/sair-siir-suur-mehmet-akif-ersoy-201910391322.jpg"},
{"name": "Kayıp El", "url": "biletinial.com/tiyatro/kayıp-el", "location": "Erzurum Devlet Tiyatrosu Sahnesi", "city": "Erzurum", "image": "https://d2yj4fhf636aio.cloudfront.net/Uploads/Films/kayip-el-201992702139.jpg"},
{"name": "Düş Yakamdan", "url": "biletinial.com/tiyatro/dus-yakamdan", "location": "Atatürk Kültür Merkezi Sahnesi", "city": "Sivas", "image": "https://d2yj4fhf636aio.cloudfront.net/Uploads/Films/dus-yakamdan-20191089466.jpg"},
{"name": "Umut Kavşağı", "url": "biletinial.com/tiyatro/umut-kavsagi", "location": "Kültür Merkezi Sahnesi", "city": "Van", "image": "https://d2yj4fhf636aio.cloudfront.net/Uploads/Films/umut-kavsagi-201910316345.jpg"},
{"name": "Çocuğum", "url": "biletinial.com/tiyatro/cocugum-benım", "location": "Cahit Sıtkı Tarancı K.M Orhan Asena Sahnesi", "city": "Diyarbakır", "image": "https://d2yj4fhf636aio.cloudfront.net/Uploads/Films/cocugum-bebegim-20191016121141.jpg"},
{"name": "Uyan!", "url": "biletinial.com/tiyatro/uyan", "location": "Konya Devlet Tiyatrosu Sahnesi", "city": "Konya", "image": "https://d2yj4fhf636aio.cloudfront.net/Uploads/Films/uyan-201910119501.png"},
{"name": "Kuzguncuklu Fazilet", "url": "biletinial.com/tiyatro/kuzguncuklu-fazilet", "location": "Atapark Haluk Ongan Sahnesi", "city": "Trabzon", "image": "https://d2yj4fhf636aio.cloudfront.net/Uploads/Films/kuzguncuklu-fazilet-20191030124215.jpg"},
{"name": "Meraklısı İçin Öyle Bir Hikaye", "url": "biletinial.com/tiyatro/meraklisi-icin-oyle-bir-hikaye", "location": "Garibaldi Salon 2", "city": "İstanbul Avrupa", "image": "https://d2yj4fhf636aio.cloudfront.net/Uploads/Films/meraklisi-icin-oyle-bir-hikaye-20191010113631.jpg"},
{"name": "Eşki Aşk", "url": "biletinial.com/tiyatro/eski-ask-izmir-nhkm", "location": "NHKM İzmir- Konak Halk Sahnesi", "city": "İzmir", "image": "https://d2yj4fhf636aio.cloudfront.net/Uploads/Films/eski-ask-20191121175726.jpg"},
{"name": "Kader Can - Bam", "url": "biletinial.com/tiyatro/kader-can-titf", "location": "Selahattin Akçiçek K.M. Avni Anıl Sahnesi", "city": "İzmir", "image": "https://d2yj4fhf636aio.cloudfront.net/Uploads/Films/kader-can-bam-20191118175137.jpg"},
{"name": "Patron", "url": "biletinial.com/tiyatro/patron-kats-sahne", "location": "Sahne 74 (Yasemin Yalçın Sahnesi)", "city": "İstanbul Avrupa", "image": "https://d2yj4fhf636aio.cloudfront.net/Uploads/Films/patron-20191028101915.jpg"},
{"name": "Bir Zamanlar", "url": "biletinial.com/tiyatro/bir-zamanlar", "location": "İstanbulimpro Sahne", "city": "İstanbul Anadolu", "image": "https://d2yj4fhf636aio.cloudfront.net/Uploads/Films/bir-zamanlar-2019430105757.jpg"},
{"name": "Kapıların Dışında", "url": "biletinial.com/tiyatro/kapilarin-disinda", "location": "Ankara Çankaya Sahne", "city": "Ankara", "image": "https://d2yj4fhf636aio.cloudfront.net/Uploads/Films/kapilarin-disinda-20191119103542.jpg"},
{"name": "Bir Şubat Gecesi", "url": "biletinial.com/tiyatro/bir-cocuk-oyunu-est", "location": "Sultandere Sahnesi", "city": "Eskişehir", "image": "https://d2yj4fhf636aio.cloudfront.net/Uploads/Films/bir-subat-gecesi-20191119174343.jpg"},
{"name": "Gün Anneme Gebe Nefes", "url": "biletinial.com/tiyatro/gun-anneme-gebe-nefes", "location": "Onat Kutlar Sahnesi", "city": "Gaziantep", "image": "https://d2yj4fhf636aio.cloudfront.net/Uploads/Films/gun-anneme-gebe-nefes-2019107134123.jpg"},
{"name": "Ayrılık", "url": "biletinial.com/tiyatro/ayrilik", "location": "Ordu Devlet Tiyatrosu", "city": "Ordu", "image": "https://d2yj4fhf636aio.cloudfront.net/Uploads/Films/ayrilik-2019109103612.jpg"},
{"name": "Leyla ile Mecnun", "url": "biletinial.com/tiyatro/leyla-ile-mecnun-dt", "location": "Sabancı Kültür Sitesi Sahnesi", "city": "Malatya", "image": "https://d2yj4fhf636aio.cloudfront.net/Uploads/Films/leyla-ile-mecnun-20191010134057.jpg"},
{"name": "Kozalar", "url": "biletinial.com/tiyatro/kozalar", "location": "Denizli Devlet Tiyatrosu", "city": "Denizli", "image": "https://d2yj4fhf636aio.cloudfront.net/Uploads/Films/kozalar-201910112417.png"},
{"name": "Aşkımız Aksarayın En Büyük Yangını", "url": "biletinial.com/tiyatro/askimiz-aksarayin-en-buyuk-yangini-dt-", "location": "Çorum Devlet Tiyatrosu Sahnesi", "city": "Çorum", "image": "https://d2yj4fhf636aio.cloudfront.net/Uploads/Films/askimiz-aksarayin-en-buyuk-yangini-2019926213818.jpg"},
{"name": "Türkiye Kayası", "url": "biletinial.com/tiyatro/turkıye-kayası", "location": "Zonguldak Akm Sahnesi", "city": "Zonguldak", "image": "https://d2yj4fhf636aio.cloudfront.net/Uploads/Films/turkiye-kayasi-2019101194441.jpg"},
{"name": "Eyvah Nadir", "url": "biletinial.com/tiyatro/eyvah-nadir-devlet-tiyatrolari", "location": "Cermodern Sahne ", "city": "Ankara", "image": "https://d2yj4fhf636aio.cloudfront.net/Uploads/Films/eyvah-nadir-20191025144128.jpg"},
{"name": "Öksüzler", "url": "biletinial.com/tiyatro/oksuzler-lefkosa-belediyesi-tiyatrosu", "location": "Bandabuliya Sahnesi", "city": "Kıbrıs", "image": "https://d2yj4fhf636aio.cloudfront.net/Uploads/Films/oksuzler-201912512148.png"},
{"name": "Sessizlik", "url": "biletinial.com/tiyatro/sessizlik", "location": "Sevda Şener Sahnesi", "city": "İzmir", "image": "https://d2yj4fhf636aio.cloudfront.net/Uploads/Films/sessizlik-20191030121544.jpg"},
{"name": "Komedya", "url": "biletinial.com/tiyatro/komedya-alternatif-td", "location": "Alternaif Tiyatro", "city": "Kocaeli", "image": "https://d2yj4fhf636aio.cloudfront.net/Uploads/Films/komedya-20191126141923.jpg"},
{"name": "Antigone", "url": "biletinial.com/tiyatro/antigone-yakin-tiyatro", "location": "Yakın Sahne", "city": "Ankara", "image": "https://d2yj4fhf636aio.cloudfront.net/Uploads/Films/antigone-2019123141955.jpg"},
{"name": "Barista", "url": "biletinial.com/tiyatro/barista-izmir-nazim-hikmet-km", "location": "NHKM İzmir- Konak Halk Sahnesi", "city": "İzmir", "image": "https://d2yj4fhf636aio.cloudfront.net/Uploads/Films/barista-2019112294249.jpg"},
{"name": "Zbam - Kara Kabare", "url": "biletinial.com/tiyatro/zbam-kara-kabare", "location": "Konak Belediyesi Güzelyalı K.M Nazım Hikmet Salonu", "city": "İzmir", "image": "https://d2yj4fhf636aio.cloudfront.net/Uploads/Films/zbam-kara-kabare-20191118175210.png"},
{"name": "Bir Gidiş Hikayesi - Bayraklı Belediye Tiyatrosu", "url": "biletinial.com/tiyatro/bir-gidis-hikayesi-titf", "location": "Selahattin Akçiçek K.M. Avni Anıl Sahnesi", "city": "İzmir", "image": "https://d2yj4fhf636aio.cloudfront.net/Uploads/Films/bir-gidis-hikayesi-bayrakli-belediye-tiyatrosu-20191118175055.jpg"},
{"name": "Bence Hiç Komik Değil", "url": "biletinial.com/tiyatro/bence-hic-komik-degil", "location": "Panora (Avm) Sanat Merkezi", "city": "Ankara", "image": "https://d2yj4fhf636aio.cloudfront.net/Uploads/Films/bence-hic-komik-degil-201992121927.png"},
{"name": "Senfoni", "url": "biletinial.com/tiyatro/senfoni-perdesiz-tiyatro", "location": "Perdesiz Sahne", "city": "İstanbul Anadolu", "image": "https://d2yj4fhf636aio.cloudfront.net/Uploads/Films/senfoni-2019112095151.jpg"},
{"name": "Soytarı Kral", "url": "biletinial.com/tiyatro/soytari-kral", "location": "Kadıköy Halk Eğitim Merkezi", "city": "İstanbul Anadolu", "image": "https://d2yj4fhf636aio.cloudfront.net/Uploads/Films/soytari-kral-2019112234851.jpg"},
{"name": "Film Anlatıcısı Kız", "url": "biletinial.com/tiyatro/film-anlaticisi-kiz-367-sahne", "location": "Sahne 367", "city": "Ankara", "image": "https://d2yj4fhf636aio.cloudfront.net/Uploads/Films/film-anlaticisi-kiz-2019103118153.jpg"},
{"name": "Altüst", "url": "biletinial.com/tiyatro/altust", "location": "İstanbulimpro Sahne", "city": "İstanbul Anadolu", "image": "https://d2yj4fhf636aio.cloudfront.net/Uploads/Films/altust-20191025212925.png"},
{"name": "Hayaller Hayatlar", "url": "biletinial.com/tiyatro/hayaller-hayatlar-kulis-sanat", "location": "Kulis Sanat Tiyatrosu", "city": "Ankara", "image": "https://d2yj4fhf636aio.cloudfront.net/Uploads/Films/hayaller-hayatlar-201910518433.jpg"},
{"name": "Bütün Çılgınlar Sever Beni", "url": "biletinial.com/tiyatro/butun-cilginlar-beni-sever-podyum-sanat", "location": "Podyum Sanat Mahal ", "city": "Bursa", "image": "https://d2yj4fhf636aio.cloudfront.net/Uploads/Films/butun-cilginlar-beni-sever-2019112613542.jpg"},
{"name": "Sevgili Toprak  ile  Papatya", "url": "biletinial.com/tiyatro/sevgili-toprak-ile-papatya-pembe-kurbaga", "location": "Pembe Kurbağa Sahnesi", "city": "Ankara", "image": "https://d2yj4fhf636aio.cloudfront.net/Uploads/Films/sevgili-toprak-ile-papatya-20191118151526.jpg"},
{"name": "Turta Girmemiş Orman", "url": "biletinial.com/tiyatro/turta-girmemis-orman", "location": "Zeytinburnu K.M.", "city": "İstanbul Avrupa", "image": "https://d2yj4fhf636aio.cloudfront.net/Uploads/Films/turta-girmemis-orman-c-2019926223042.jpg"},
{"name": "Fareli Köyün Kavalcısı", "url": "biletinial.com/tiyatro/fareli-koyun-kavalcisi-kats-sahne", "location": "Gayrettepe Kats Sahne", "city": "İstanbul Avrupa", "image": "https://d2yj4fhf636aio.cloudfront.net/Uploads/Films/fareli-koyun-kavalcisi-bg-danismanlik-20191028101331.jpg"},
{"name": "Arı Maya", "url": "biletinial.com/tiyatro/ari-maya-eskisehir", "location": "Zübeyde Hanım Kültür Merkezi", "city": "Eskişehir", "image": "https://d2yj4fhf636aio.cloudfront.net/Uploads/Films/ari-maya-2019102392023.jpg"},
{"name": "Beyaz Evin Külleri", "url": "biletinial.com/tiyatro/beyaz-evin-kulleri", "location": "Ankara Sanat Tiyatrosu", "city": "Ankara", "image": "https://d2yj4fhf636aio.cloudfront.net/Uploads/Films/beyaz-evin-kulleri-2019219132738.jpg"},
{"name": "1 Delinin Hatıra Defteri", "url": "biletinial.com/tiyatro/1-delinin-hatira-defteri-koray-tahir-on", "location": "Farabi Sahnesi", "city": "Ankara", "image": "https://d2yj4fhf636aio.cloudfront.net/Uploads/Films/1-delinin-hatira-defteri-20191127161955.jpg"},
{"name": "Kocamın Nişanlısı", "url": "biletinial.com/tiyatro/kocamin-nisanlisi-usak-belediyesi", "location": "Uşak Belediyesi AKM", "city": "Uşak", "image": "https://d2yj4fhf636aio.cloudfront.net/Uploads/Films/kocamin-nisanlisi-201912511533.jpg"},
{"name": "Profesyonel - Çukurova Üniversitesi Tiyatro Klübü", "url": "biletinial.com/tiyatro/profesyonel-titf", "location": "Konak Belediyesi Güzelyalı K.M Nazım Hikmet Salonu", "city": "İzmir", "image": "https://d2yj4fhf636aio.cloudfront.net/Uploads/Films/profesyonel-cukurova-universitesi-tiyatro-klubu-20191118175442.jpg"},
{"name": "Scapin'in Dolapları", "url": "biletinial.com/tiyatro/scapinin-dolaplari-", "location": "Opera Tiyatro Salonu", "city": "Eskişehir", "image": "https://d2yj4fhf636aio.cloudfront.net/Uploads/Films/scapinin-dolaplari-20191125172024.jpg"},
{"name": "Arınma", "url": "biletinial.com/tiyatro/arinma-drama-kumpanya", "location": "KarmaDrama", "city": "İstanbul Anadolu", "image": "https://d2yj4fhf636aio.cloudfront.net/Uploads/Films/arinma-201988101228.jpg"},
{"name": "On Dakika Ara", "url": "biletinial.com/tiyatro/on-dakika-ara", "location": "Tiyatro Kafe", "city": "Ankara", "image": "https://d2yj4fhf636aio.cloudfront.net/Uploads/Films/on-dakika-ara-201911792724.jpg"},
{"name": "Çat Kapı Uygur Sanat Tiyatrosu", "url": "biletinial.com/tiyatro/cat-kapi-uygur-tiyatrosu", "location": "Bodrum Amerikan Kültür Koleji", "city": "Muğla", "image": "https://d2yj4fhf636aio.cloudfront.net/Uploads/Films/cat-kapi-uygur-sanat-tiyatrosu-20191125173035.png"},
{"name": "Sekreter Tiyatro Oyunu", "url": "biletinial.com/tiyatro/sekreter-tiyatro-oyunu-inhkm", "location": "NHKM İzmir- Konak Halk Sahnesi", "city": "İzmir", "image": "https://d2yj4fhf636aio.cloudfront.net/Uploads/Films/sekreter-tiyatro-oyunu-20191126153534.jpg"},
{"name": "Başka Yolu Yok", "url": "biletinial.com/tiyatro/baska-yolu-yok", "location": "Sahne 367", "city": "Ankara", "image": "https://d2yj4fhf636aio.cloudfront.net/Uploads/Films/baska-yolu-yok-20194316310.jpg"},
{"name": "Olay Rusya'da Geçiyor", "url": "biletinial.com/tiyatro/olay-rusyada-geciyor", "location": "İstanbulimpro Sahne", "city": "İstanbul Anadolu", "image": "https://d2yj4fhf636aio.cloudfront.net/Uploads/Films/olay-rusyada-geciyor-2019118134556.jpg"},
{"name": "Adviye", "url": "biletinial.com/tiyatro/adviye-goztepe-oda-tiyatrosu", "location": "Göztepe Oda Tiyatrosu", "city": "İstanbul Anadolu", "image": "https://d2yj4fhf636aio.cloudfront.net/Uploads/Films/adviye-20191019103231.png"},
{"name": "Altın Kız", "url": "biletinial.com/tiyatro/altin-kiz-dt", "location": "Altındağ Sahnesi", "city": "Ankara", "image": "https://d2yj4fhf636aio.cloudfront.net/Uploads/Films/altin-kiz-c-20191113101215.jpg"},
{"name": "Sihirli Keman", "url": "biletinial.com/tiyatro/sihirli-keman-dt", "location": "Adana Sabancı Kültür Merkezi", "city": "Adana", "image": "https://d2yj4fhf636aio.cloudfront.net/Uploads/Films/sihirli-kemanc-201910392120.jpg"},
{"name": "Kuzu Maydanozun Maceraları", "url": "biletinial.com/tiyatro/kuzu-maydanozun-maceralari", "location": "Bornova KSM Bozkurt Kuruç Sahnesi", "city": "İzmir", "image": "https://d2yj4fhf636aio.cloudfront.net/Uploads/Films/kuzu-maydanozun-maceralaric-201910212539.jpg"},
{"name": "Bizden Masallar NOHUT OĞLAN", "url": "biletinial.com/tiyatro/bizden-masallar-nohut-oglan", "location": "Konak Sahnesi", "city": "İzmir", "image": "https://d2yj4fhf636aio.cloudfront.net/Uploads/Films/bizden-masallar-nohut-oglanc-20191018151637.jpg"},
{"name": "Acaba Kutuda Ne Var", "url": "biletinial.com/tiyatro/acaba-kutuda-ne-var", "location": "Pembe Kurbağa Sahnesi", "city": "Ankara", "image": "https://d2yj4fhf636aio.cloudfront.net/Uploads/Films/acaba-kutuda-ne-var-2019924175346.png"},
{"name": "Bremen Mızıkacıları Yeni Dünya Bandosu", "url": "biletinial.com/tiyatro/bremen-mizikacilari-yeni-dunyalar-bandosu", "location": "Barış Manço Kültür Merkezi", "city": "İstanbul Anadolu", "image": "https://d2yj4fhf636aio.cloudfront.net/Uploads/Films/bremen-mizikacilari-yeni-dunya-bandosu-20191017122232.jpg"},
{"name": "Karagöz: İstanbul Gezgini", "url": "biletinial.com/tiyatro/karagoz-istanbul-gezgini", "location": "Caddebostan K.M Salonu", "city": "İstanbul Anadolu", "image": "https://d2yj4fhf636aio.cloudfront.net/Uploads/Films/karagoz-istanbul-gezgini-2019114191321.jpg"},
{"name": "Keloğlan Keleşoğlan", "url": "biletinial.com/tiyatro/keloglan-kelesoglan", "location": "Cevahir Salon 1", "city": "İstanbul Avrupa", "image": "https://d2yj4fhf636aio.cloudfront.net/Uploads/Films/keloglan-kelesoglan-c-201992622189.jpg"},
{"name": "Dünyadaki En Güzel Şey", "url": "biletinial.com/tiyatro/dunyadaki-en-guzel-sey", "location": "Podyum Sanat Mahal ", "city": "Bursa", "image": "https://d2yj4fhf636aio.cloudfront.net/Uploads/Films/dunyadaki-en-guzel-sey-2019112695123.jpg"},
{"name": "Alaaddin-Kukla Tiyatrosu", "url": "biletinial.com/tiyatro/alaaddin-kukla-atolyesi", "location": "Farabi Sahnesi", "city": "Ankara", "image": "https://d2yj4fhf636aio.cloudfront.net/Uploads/Films/alaaddin-kukla-tiyatrosu-2019104103823.jpg"},
{"name": "Çöp Çetesi ve Ormanın Koruyucuları", "url": "biletinial.com/tiyatro/cop-cetesi-ve-ormanin-koruyuculari", "location": "Barış Manço Kültür Merkezi", "city": "İstanbul Anadolu", "image": "https://d2yj4fhf636aio.cloudfront.net/Uploads/Films/cop-cetesi-ve-ormanin-koruyuculari-2019121238.jpg"},
{"name": "Kurtar Beni Doktor -Tiyatrol", "url": "biletinial.com/tiyatro/kurtar-beni-doktor-perdesiz-sahne", "location": "Perdesiz Sahne", "city": "İstanbul Anadolu", "image": "https://d2yj4fhf636aio.cloudfront.net/Uploads/Films/kurtar-beni-doktor-tiyatrol-20191029195215.jpg"},
{"name": "Cahide Sonku Müzikali", "url": "biletinial.com/tiyatro/cahide-sonku-müzikali-kulis-sanat", "location": "Kulis Sanat Tiyatrosu", "city": "Ankara", "image": "https://d2yj4fhf636aio.cloudfront.net/Uploads/Films/cahide-sonku-muzikali-201910518051.jpg"},
{"name": "Fosforlu Cevriye", "url": "biletinial.com/tiyatro/fosforlu-cevriye", "location": "Akün Sahnesi", "city": "Ankara", "image": "https://d2yj4fhf636aio.cloudfront.net/Uploads/Films/fosforlu-cevriye-2019114154749.jpg"},
{"name": "Oyun odası-", "url": "biletinial.com/tiyatro/oyun-odasi-kulis-sanat", "location": "Kulis Sanat Tiyatrosu", "city": "Ankara", "image": "https://d2yj4fhf636aio.cloudfront.net/Uploads/Films/oyun-odasi-201910518229.jpg"},
{"name": "İyilik Takımı", "url": "biletinial.com/tiyatro/iyilik-takimi-fikrigunfilm", "location": "Uğur Mumcu Kültür Merkezi", "city": "Bursa", "image": "https://d2yj4fhf636aio.cloudfront.net/Uploads/Films/iyilik-takimi-20191015174128.jpg"},
{"name": "Çizmeli Kedi", "url": "biletinial.com/tiyatro/cizmeli-kedi", "location": "N.F.K. Sahnesi", "city": "Kahramanmaraş", "image": "https://d2yj4fhf636aio.cloudfront.net/Uploads/Films/cizmeli-kedic-20191017152527.jpg"},
{"name": "Midas'ın Altınları", "url": "biletinial.com/tiyatro/midasin-altinlari-dt", "location": "Şinasi Sahnesi", "city": "Ankara", "image": "https://d2yj4fhf636aio.cloudfront.net/Uploads/Films/midasin-altinlaric-20191113101816.jpg"},
{"name": "Küçük Prenses", "url": "biletinial.com/tiyatro/kucuk-prenses", "location": "Ahmet Vefik Paşa Bursa Devlet Tiyatrosu", "city": "Bursa", "image": "https://d2yj4fhf636aio.cloudfront.net/Uploads/Films/kucuk-prensesc-2019102417836.jpg"},
{"name": "İstasyon", "url": "biletinial.com/tiyatro/istasyon-dt", "location": "Üsküdar Stüdyo Sahnesi", "city": "İstanbul Anadolu", "image": "https://d2yj4fhf636aio.cloudfront.net/Uploads/Films/istasyon-2019926221127.png"},
{"name": "Gulyabani ", "url": "biletinial.com/tiyatro/gulyabani-oyunu", "location": "Altındağ Sahnesi", "city": "Ankara", "image": "https://d2yj4fhf636aio.cloudfront.net/Uploads/Films/gulyabani-2019928124959.jpg"},
{"name": "Kapan (SLEUTH) ", "url": "biletinial.com/tiyatro/kapan-oyunu", "location": "Akün Sahnesi", "city": "Ankara", "image": "https://d2yj4fhf636aio.cloudfront.net/Uploads/Films/kapan-sleuth-201991817733.jpg"},
{"name": "Aşkımız Aksarayın En Büyük Yangını", "url": "biletinial.com/tiyatro/askimiz-aksarayin-en-buyuk-yangini-dt-", "location": "Küçük Tiyatro", "city": "Ankara", "image": "https://d2yj4fhf636aio.cloudfront.net/Uploads/Films/askimiz-aksarayin-en-buyuk-yangini-2019926213818.jpg"},
{"name": "Küçük Burjuva Düğünü ", "url": "biletinial.com/tiyatro/kucuk-burjuva-dugunu", "location": "Şinasi Sahnesi", "city": "Ankara", "image": "https://d2yj4fhf636aio.cloudfront.net/Uploads/Films/kucuk-burjuva-dugunu-2019926202245.jpg"},
{"name": "Lüküs Hayat", "url": "biletinial.com/tiyatro/lukus-hayat-oyunu", "location": "Cüneyt Gökçer Sahnesi", "city": "Ankara", "image": "https://d2yj4fhf636aio.cloudfront.net/Uploads/Films/lukus-hayat-m-201992812520.jpg"},
{"name": "Maskeliler.", "url": "biletinial.com/tiyatro/maskeliler", "location": "Sultandere Sahnesi", "city": "Eskişehir", "image": "https://d2yj4fhf636aio.cloudfront.net/Uploads/Films/maskeliler-2018925133939.jpg"},
{"name": "Stefan Zweıg'ın Çöküşü", "url": "biletinial.com/tiyatro/stefan-zweigin-cokusu-ankara", "location": "CerModern Konferans Salonu", "city": "Ankara", "image": "https://d2yj4fhf636aio.cloudfront.net/Uploads/Films/stefan-zweigin-cokusu-20199216041.jpg"},
{"name": "Bir Peri Masalı Radyum Kızları", "url": "biletinial.com/tiyatro/bir-peri-masali-radyum-kizlari", "location": "Üsküdar Tekel Sahnesi", "city": "İstanbul Anadolu", "image": "https://d2yj4fhf636aio.cloudfront.net/Uploads/Films/bir-peri-masali-radyum-kizlari-201910893950.jpg"},
{"name": "Annemin Son Çılgınlıkları", "url": "biletinial.com/tiyatro/annemın-son-cılgınlıkları", "location": "Konak Sahnesi", "city": "İzmir", "image": "https://d2yj4fhf636aio.cloudfront.net/Uploads/Films/annemin-son-cilginliklari-2019101183533.png"},
{"name": "Türkiye Kayası", "url": "biletinial.com/tiyatro/turkıye-kayası", "location": "Karşıyaka Sahnesi", "city": "İzmir", "image": "https://d2yj4fhf636aio.cloudfront.net/Uploads/Films/turkiye-kayasi-2019101194441.jpg"},
{"name": "Gellert Tepesi’nde Düş ve Gerçek", "url": "biletinial.com/tiyatro/gellert-tepesinde-dus-ve-gercek-ciglik", "location": "Ziraat Sahnesi", "city": "Ankara", "image": "https://d2yj4fhf636aio.cloudfront.net/Uploads/Films/gellert-tepesinde-dus-ve-gercek-201911280247.jpg"},
{"name": "80 Günde Devr-i Alem ", "url": "biletinial.com/tiyatro/seksen-gunde-devr-i-alem", "location": "Cevahir Salon 1", "city": "İstanbul Avrupa", "image": "https://d2yj4fhf636aio.cloudfront.net/Uploads/Films/80-gunde-devri-i-alem-8-20191031181234.jpg"},
{"name": "Maskeliler", "url": "biletinial.com/tiyatro/maskeliler-dt", "location": "Stüdyo Sahnesi", "city": "Ankara", "image": "https://d2yj4fhf636aio.cloudfront.net/Uploads/Films/maskeliler-201910413529.jpg"},
{"name": "Matruşka", "url": "biletinial.com/tiyatro/matruska", "location": "Adana Sabancı Kültür Merkezi", "city": "Adana", "image": "https://d2yj4fhf636aio.cloudfront.net/Uploads/Films/matruska-2019112219328.jpg"},
{"name": "Arzunun 9 Parçası", "url": "biletinial.com/tiyatro/arzunun-dokuz-parcasi-koray-tahir-on", "location": "Farabi Sahnesi", "city": "Ankara", "image": "https://d2yj4fhf636aio.cloudfront.net/Uploads/Films/arzunun-9-parcasi-2019122123831.jpg"},
{"name": "Kasetçi", "url": "biletinial.com/tiyatro/kasetci", "location": "Nurettin Ardıçoğlu Kültür Merkezi DT Sahnesi", "city": "Elazığ ", "image": "https://d2yj4fhf636aio.cloudfront.net/Uploads/Films/kasetci-20199270311.jpg"},
{"name": "Arf Sabiti", "url": "biletinial.com/tiyatro/arf-sabiti", "location": "Edirne DT", "city": "Edirne", "image": "https://d2yj4fhf636aio.cloudfront.net/Uploads/Films/arf-sabiti-201992623753.jpg"},
{"name": "Anlaşılmaz Konuşmalar", "url": "biletinial.com/tiyatro/anlasılmaz-konusmalar", "location": "Kayapınar Sahnesi", "city": "Diyarbakır", "image": "https://d2yj4fhf636aio.cloudfront.net/Uploads/Films/anlasilmaz-konusmalar-20199270456.jpg"},
{"name": "Yaşanması Gerekiyorsa", "url": "biletinial.com/tiyatro/yasanmasi-gerekiyorsa", "location": "Nazım Hikmet Kültür Evi", "city": "Bursa", "image": "https://d2yj4fhf636aio.cloudfront.net/Uploads/Films/yasanmasi-gerekiyorsa-201911512206.jpg"},
{"name": "Anılarla Atatürk", "url": "biletinial.com/tiyatro/anilarla-ataturk", "location": "İstanbulimpro Sahne", "city": "İstanbul Anadolu", "image": "https://d2yj4fhf636aio.cloudfront.net/Uploads/Films/anilarla-ataturk-201986103137.jpg"},
{"name": "Alice Harikalar Diyarında", "url": "biletinial.com/tiyatro/alıce-harıkalar-dıyarında", "location": "Atatürk Kültür Merkezi Sahnesi", "city": "Sivas", "image": "https://d2yj4fhf636aio.cloudfront.net/Uploads/Films/alice-harikalar-diyarinda-c-201992703850.jpg"},
{"name": "Mutluluğu Arayan Ayıcık", "url": "biletinial.com/tiyatro/mutlulugu-arayan-ayicik-fikrigun", "location": "Halis Kurtça Kültür Merkezi", "city": "İstanbul Anadolu", "image": "https://d2yj4fhf636aio.cloudfront.net/Uploads/Films/mutlulugu-arayan-ayicik-2019122134540.png"},
{"name": "12 Öfkeli.", "url": "biletinial.com/tiyatro/oniki-ofkeli", "location": "İrfan Şahinbaş.", "city": "Ankara", "image": "https://d2yj4fhf636aio.cloudfront.net/Uploads/Films/12-ofkeli-2019926192930.jpg"},
{"name": "İki Bekar.", "url": "biletinial.com/tiyatro/iki-bekar-", "location": "Haller Gençlik Merkezi", "city": "Eskişehir", "image": "https://d2yj4fhf636aio.cloudfront.net/Uploads/Films/iki-bekar-2018327165219.jpg"},
{"name": "Yedi Kocalı Hürmüz", "url": "biletinial.com/tiyatro/yedi-kocali-hurmuz", "location": "Sabancı Kültür Merkezi", "city": "Kocaeli", "image": "https://d2yj4fhf636aio.cloudfront.net/Uploads/Films/yedi-kocali-hurmuz-20199270501.jpg"},
{"name": "3+1 Zombili", "url": "biletinial.com/tiyatro/uc-arti-bir-zombili", "location": "Bolu İl Kültür ve Turizm Müdürlüğü Tiyatro Salonu", "city": "Bolu", "image": "https://d2yj4fhf636aio.cloudfront.net/Uploads/Films/31-zombili-2019923102643.jpg"},
{"name": "Dr. Jekyll Ve Bay Hyde", "url": "biletinial.com/tiyatro/dr-jekyll-ve-bay-hyde-koray-tahir-on", "location": "Farabi Sahnesi", "city": "Ankara", "image": "https://d2yj4fhf636aio.cloudfront.net/Uploads/Films/dr-jekyll-ve-bay-hyde-2019111415036.jpg"},
{"name": "Şapka", "url": "biletinial.com/tiyatro/sapka", "location": "N.F.K. Sahnesi", "city": "Kahramanmaraş", "image": "https://d2yj4fhf636aio.cloudfront.net/Uploads/Films/sapka-2019111175722.jpg"},
{"name": "Bimarhane", "url": "biletinial.com/tiyatro/bimarhane", "location": "Antalya Haşim İşcan K.M  Küçük Salon", "city": "Antalya", "image": "https://d2yj4fhf636aio.cloudfront.net/Uploads/Films/bimarhane-2019112712121.png"},
{"name": "Gölgesinde Çınarın", "url": "biletinial.com/tiyatro/golgesinde-cinarin-inhkm", "location": "NHKM İzmir- Konak Halk Sahnesi", "city": "İzmir", "image": "https://d2yj4fhf636aio.cloudfront.net/Uploads/Films/golgesinde-cinarin-20191130165156.JPG"},
{"name": "Küçük Bir Aşk Masalı", "url": "biletinial.com/tiyatro/kucuk-bir-ask-masali", "location": "Tiyatro Kafe", "city": "Ankara", "image": "https://d2yj4fhf636aio.cloudfront.net/Uploads/Films/kucuk-bir-ask-masali-2019114152137.jpg"},
{"name": "'Bence Hiç Komik Değil'", "url": "biletinial.com/tiyatro/bence-hic-komik-degil-ons-yapim", "location": "BAOB Oditoryum", "city": "Bursa", "image": "https://d2yj4fhf636aio.cloudfront.net/Uploads/Films/bence-hic-komik-degil-2019101094940.jpg"},
{"name": "Korku", "url": "biletinial.com/tiyatro/korku", "location": "1001 sanat", "city": "İstanbul Avrupa", "image": "https://d2yj4fhf636aio.cloudfront.net/Uploads/Films/korku-201910311735.jpg"},
{"name": "Muzip Masal Cini \"Şahmaran Masalları\"", "url": "biletinial.com/tiyatro/muzip-masal-cini-sahmaran-masallari", "location": "İstanbulimpro Sahne", "city": "İstanbul Anadolu", "image": "https://d2yj4fhf636aio.cloudfront.net/Uploads/Films/muzip-masal-cini-sahmaran-masallari-2019927101031.png"},
{"name": "Yalan Makinası", "url": "biletinial.com/tiyatro/yalan-makinesi", "location": "Feraizcizade Oda Tiyatrosu", "city": "Bursa", "image": "https://d2yj4fhf636aio.cloudfront.net/Uploads/Films/yalan-makinesi-201911420752.jpg"},
{"name": "Nihayet Bitti", "url": "biletinial.com/tiyatro/nihayet-bitti", "location": "Adana Oda Tiyatrosu", "city": "Adana", "image": "https://d2yj4fhf636aio.cloudfront.net/Uploads/Films/nihayet-bitti-2019112211103.png"},
{"name": "Yavuz Seçkin Stand Up Show", "url": "biletinial.com/tiyatro/yavuz-seckin-stand-up-show-mersin", "location": "Mersin Büyükşehir Belediyesi KongreveSergiSarayı", "city": "Mersin", "image": "https://d2yj4fhf636aio.cloudfront.net/Uploads/Films/yavuz-seckin-stand-up-show-2019116171111.jpg"},
{"name": "1919 Şafak", "url": "biletinial.com/tiyatro/1919-safak", "location": "Atatürk Kültür Merkezi Sahnesi", "city": "Sivas", "image": "https://d2yj4fhf636aio.cloudfront.net/Uploads/Films/1919-safak-20191022142810.jpg"},
{"name": "Pusuda Öç", "url": "biletinial.com/tiyatro/pusuda-oc", "location": "Kültür Merkezi Sahnesi", "city": "Van", "image": "https://d2yj4fhf636aio.cloudfront.net/Uploads/Films/pusuda-oc-20191127121242.png"},
{"name": "Shirley Valentine", "url": "biletinial.com/tiyatro/shirley-valentine", "location": "Konya Devlet Tiyatrosu Sahnesi", "city": "Konya", "image": "https://d2yj4fhf636aio.cloudfront.net/Uploads/Films/shirley-valentine-20191022161439.jpg"},
{"name": "Medyum", "url": "biletinial.com/tiyatro/medyum", "location": "Atapark Haluk Ongan Sahnesi", "city": "Trabzon", "image": "https://d2yj4fhf636aio.cloudfront.net/Uploads/Films/medyum-201912215355.jpg"},
{"name": "Yanlışlık", "url": "biletinial.com/tiyatro/yanlislik", "location": "Cahit Sıtkı Tarancı K.M Orhan Asena Sahnesi", "city": "Diyarbakır", "image": "https://d2yj4fhf636aio.cloudfront.net/Uploads/Films/yanlislik-2019112219652.jpg"},
{"name": "Tüccarlar", "url": "biletinial.com/tiyatro/tuccarlar", "location": "Zübeyde Hanım Kültür Merkezi", "city": "Eskişehir", "image": "https://d2yj4fhf636aio.cloudfront.net/Uploads/Films/tuccarlar-201992142311.png"},
{"name": "Aziz Dostum Çehov", "url": "biletinial.com/tiyatro/aziz-dostum-cehov", "location": "Garibaldi Salon 2", "city": "İstanbul Avrupa", "image": "https://d2yj4fhf636aio.cloudfront.net/Uploads/Films/aziz-dostum-cehov-2019102417142.jpg"},
{"name": "Profesyonel", "url": "biletinial.com/tiyatro/profesyonel-dt", "location": "Küçükçekmece DT Sahnesi", "city": "İstanbul Avrupa", "image": "https://d2yj4fhf636aio.cloudfront.net/Uploads/Films/profesyonel-2019111811125.jpg"},
{"name": "Nora", "url": "biletinial.com/tiyatro/nora-perdesiz-sanat", "location": "Perdesiz Sahne", "city": "İstanbul Anadolu", "image": "https://d2yj4fhf636aio.cloudfront.net/Uploads/Films/nora-20191029201644.jpg"},
{"name": "Gettodakiler", "url": "biletinial.com/tiyatro/gettodakiler", "location": "Fuar İzmir Sanat", "city": "İzmir", "image": "https://d2yj4fhf636aio.cloudfront.net/Uploads/Films/gettodakiler-20191125143311.jpg"},
{"name": "Tiyatro Oyunu Okuması Bu Yaşta Hala Saklanarak Sigara İçiyorum", "url": "biletinial.com/tiyatro/tiyatro-oyunu-okuması-bu-yasta-hala-saklanarak-sigara-iciyorum", "location": "Bodrum Deneme Sahnesi", "city": "Muğla", "image": "https://d2yj4fhf636aio.cloudfront.net/Uploads/Films/tiyatro-oyunu-okumasi-bu-yasta-hala-saklanarak-sigara-iciyorum-20191113115719.jpg"},
{"name": "Çizmeli Kedi", "url": "biletinial.com/tiyatro/cizmeli-kedi", "location": "Onat Kutlar Sahnesi", "city": "Gaziantep", "image": "https://d2yj4fhf636aio.cloudfront.net/Uploads/Films/cizmeli-kedic-20191017152527.jpg"},
{"name": "Şapka", "url": "biletinial.com/tiyatro/sapka", "location": "Onat Kutlar Sahnesi", "city": "Gaziantep", "image": "https://d2yj4fhf636aio.cloudfront.net/Uploads/Films/sapka-2019111175722.jpg"},
{"name": "Moıra'nın Gece Döngüsü", "url": "biletinial.com/tiyatro/moıranın-gece-dongusu", "location": "DT Urla Atatürk Kültür Merkezi Sahnesi", "city": "İzmir", "image": "https://d2yj4fhf636aio.cloudfront.net/Uploads/Films/moiranin-gece-dongusu-2019101195649.jpg"},
{"name": "Temiz Ev", "url": "biletinial.com/tiyatro/temiz-ev", "location": "Denizli Devlet Tiyatrosu", "city": "Denizli", "image": "https://d2yj4fhf636aio.cloudfront.net/Uploads/Films/temiz-ev-2019118162024.jpg"},
{"name": "Amak-ı Hayal", "url": "biletinial.com/tiyatro/amakı-hayal", "location": "Ordu Devlet Tiyatrosu", "city": "Ordu", "image": "https://d2yj4fhf636aio.cloudfront.net/Uploads/Films/amak-i-hayal-201992701237.jpg"},
{"name": "Lena, Leyla ve Diğerleri", "url": "biletinial.com/tiyatro/lena-leyla-ve-dıgerlerı", "location": "Zonguldak Akm Sahnesi", "city": "Zonguldak", "image": "https://d2yj4fhf636aio.cloudfront.net/Uploads/Films/lena-leyla-ve-digerleri-201910119271.jpg"},
{"name": "Kasetçi", "url": "biletinial.com/tiyatro/kasetci", "location": "Sabancı Kültür Sitesi Sahnesi", "city": "Malatya", "image": "https://d2yj4fhf636aio.cloudfront.net/Uploads/Films/kasetci-20199270311.jpg"},
{"name": "Frankfurt'ta Kız Arkadaşı Olan Bir Saksafonist Tarafından Anlatılan Pandaların Hikayesi", "url": "biletinial.com/tiyatro/frankfurt-kiz-arkadasi-yakin-tiyatro", "location": "Yakın Sahne", "city": "Ankara", "image": "https://d2yj4fhf636aio.cloudfront.net/Uploads/Films/frankfurtta-kiz-arkadasi-olan-bir-saksafonist-tarafindan-anlatilan-pandalarin-h-2019123151541.jpg"},
{"name": "Tahsin Hasoğlu Standup", "url": "biletinial.com/tiyatro/tahsin-hasoglu-inax-medya", "location": "BKM Mutfak Kıbrıs", "city": "Kıbrıs", "image": "https://d2yj4fhf636aio.cloudfront.net/Uploads/Films/tahsin-hasoglu-standup-2019128172319.jpeg"},
{"name": "Tüccarlar", "url": "biletinial.com/tiyatro/tuccarlar", "location": "Salih Tozan Kültür Merkezi", "city": "Balıkesir", "image": "https://d2yj4fhf636aio.cloudfront.net/Uploads/Films/tuccarlar-201992142311.png"},
{"name": "Bir Anarşistin Kaza Sonucu Ölümü", "url": "biletinial.com/tiyatro/bir-anarsistin-kaza-sonucu-olumu", "location": "Ankara Sanat Tiyatrosu", "city": "Ankara", "image": "https://d2yj4fhf636aio.cloudfront.net/Uploads/Films/bir-anarsistin-kaza-sonucu-olumu-20191111175549.jpg"},
{"name": "Kreş (Kreatif Şaklabanlar )Doğaçlama Tiyatro Sporu Gösterisi", "url": "biletinial.com/tiyatro/kres-kreatif-saklabanlar-dogaclama-tiyatro-sporu-gosterisi", "location": "Apartman Sahne", "city": "İstanbul Anadolu", "image": "https://d2yj4fhf636aio.cloudfront.net/Uploads/Films/kres-kreatif-saklabanlar-dogaclama-tiyatro-sporu-gosterisi-201912516045.jpg"},
{"name": "Büyük Süpriz", "url": "biletinial.com/tiyatro/buyuk-supriz-tiyatro-kafe", "location": "Tiyatro Kafe", "city": "Ankara", "image": "https://d2yj4fhf636aio.cloudfront.net/Uploads/Films/buyuk-supriz-2019112217375.jpg"},
{"name": "Hipokrat", "url": "biletinial.com/tiyatro/hipokrat-podyum-sanat", "location": "Podyum Sanat Mahal ", "city": "Bursa", "image": "https://d2yj4fhf636aio.cloudfront.net/Uploads/Films/hipokrat-2019108152420.jpg"},
{"name": "Masal Irmaklarında", "url": "biletinial.com/tiyatro/masal-irmaklarinda", "location": "İstanbulimpro Sahne", "city": "İstanbul Anadolu", "image": "https://d2yj4fhf636aio.cloudfront.net/Uploads/Films/masal-irmaklarinda-201911814331.jpg"},
{"name": "Dış Ses", "url": "biletinial.com/tiyatro/dis-ses-kulis-sanat", "location": "Kulis Sanat Tiyatrosu", "city": "Ankara", "image": "https://d2yj4fhf636aio.cloudfront.net/Uploads/Films/dis-ses-201910621359.png"},
{"name": "X  Dans Tiyatrosu", "url": "biletinial.com/tiyatro/x-sahne367-dans-tiyatrosu", "location": "Sahne 367", "city": "Ankara", "image": "https://d2yj4fhf636aio.cloudfront.net/Uploads/Films/x-dans-tiyatrosu-201912395315.jpg"},
{"name": "Pamuk Prenses 7 Cüceler", "url": "biletinial.com/tiyatro/pamuk-prenses-7-cuceler-turnagol", "location": " İzmir  Narlıdere  AKM Gürdal Tosun Sahnesi", "city": "İzmir", "image": "https://d2yj4fhf636aio.cloudfront.net/Uploads/Films/pamuk-prenses-7-cuceler-2019123125316.jpg"},
{"name": "Aslan Kral", "url": "biletinial.com/tiyatro/aslan-kral-tiyatro-cafe", "location": "Devlet Tiyatroları 75. Yıl Sahnesi", "city": "Ankara", "image": "https://d2yj4fhf636aio.cloudfront.net/Uploads/Films/aslan-kral-2019112591729.jpg"},
{"name": "Şair, Şiir, Şuur Mehmet Akif Ersoy", "url": "biletinial.com/tiyatro/sair-siir-suur", "location": "Zeytinburnu K.M.", "city": "İstanbul Avrupa", "image": "https://d2yj4fhf636aio.cloudfront.net/Uploads/Films/sair-siir-suur-mehmet-akif-ersoy-201910391322.jpg"},
{"name": "Kuşlar", "url": "biletinial.com/tiyatro/kuslar-koray-tahir-on", "location": "Farabi Sahnesi", "city": "Ankara", "image": "https://d2yj4fhf636aio.cloudfront.net/Uploads/Films/kuslar-20191029195637.jpg"},
{"name": "Sarhoştum Hatırlamıyorum", "url": "biletinial.com/tiyatro/sarhostum-hatirlamiyorum", "location": "Ahmet Piriştina Kültür Merkezi", "city": "İzmir", "image": "https://d2yj4fhf636aio.cloudfront.net/Uploads/Films/sarhostum-hatirlamiyorum-2019112612748.jpg"},
{"name": "Ölümü  Ardında  Gezdirenler", "url": "biletinial.com/tiyatro/olumu-ardinda-gezdirenler-ekim-sanat", "location": "Ekim Sanat Sahne", "city": "Bursa", "image": "https://d2yj4fhf636aio.cloudfront.net/Uploads/Films/olumu-ardinda-gezdirenler-2019123151741.jpg"},
{"name": "Alengir Doğaçlama (Doğaçlama Tiyatro)", "url": "biletinial.com/tiyatro/alengir-dogaclama-tiyatro", "location": "Apartman Sahne", "city": "İstanbul Anadolu", "image": "https://d2yj4fhf636aio.cloudfront.net/Uploads/Films/alengir-dogaclama-dogaclama-tiyatro-2019129134947.png"},
{"name": "Zaman Makinesi", "url": "biletinial.com/tiyatro/zaman-makinesi-alternaif-tiyatro", "location": "Alternaif Tiyatro", "city": "Kocaeli", "image": "https://d2yj4fhf636aio.cloudfront.net/Uploads/Films/zaman-makinesi-20191127104641.jpg"},
{"name": "Evdeki Hesap Çarşıya Uymaz", "url": "biletinial.com/tiyatro/evdeki-hesap-carsiya-uymaz-tiyatro-matine-suare", "location": "Eskişehir Zübeyde Hanım Kültür Merkezi", "city": "Eskişehir", "image": "https://d2yj4fhf636aio.cloudfront.net/Uploads/Films/evdeki-hesap-carsiya-uymaz-20191126112417.png"},
{"name": "Matruşka Tiyatro Cafe", "url": "biletinial.com/tiyatro/matruska-tiyatro-cafe", "location": "Devlet Tiyatroları 75. Yıl Sahnesi", "city": "Ankara", "image": "https://d2yj4fhf636aio.cloudfront.net/Uploads/Films/matruska-tiyatro-cafe-2019111916544.jpg"},
{"name": "Ödül", "url": "biletinial.com/tiyatro/odul-kulis-sanat", "location": "Kulis Sanat Tiyatrosu", "city": "Ankara", "image": "https://d2yj4fhf636aio.cloudfront.net/Uploads/Films/odul-20191062113.png"},
{"name": "Küçük Amerika", "url": "biletinial.com/tiyatro/kucuk-amerika", "location": "İstanbulimpro Sahne", "city": "İstanbul Anadolu", "image": "https://d2yj4fhf636aio.cloudfront.net/Uploads/Films/kucuk-amerika-2019103021834.png"},
{"name": "Tanrının Eli", "url": "biletinial.com/tiyatro/tanrinin-eli-podyum-sanat", "location": "Podyum Sanat Mahal ", "city": "Bursa", "image": "https://d2yj4fhf636aio.cloudfront.net/Uploads/Films/tanrinin-eli-20191111175417.jpg"},
{"name": "Evden Kaçan Soba", "url": "biletinial.com/tiyatro/evden-kacan-soba-pembe-kurbaga", "location": "Pembe Kurbağa Sahnesi", "city": "Ankara", "image": "https://d2yj4fhf636aio.cloudfront.net/Uploads/Films/evden-kacan-soba-2019111815826.jpg"},
{"name": "Bavulumda Kuklalar", "url": "biletinial.com/tiyatro/bavulumda-kuklalar-yakin-tiyatro", "location": "Yakın Sahne", "city": "Ankara", "image": "https://d2yj4fhf636aio.cloudfront.net/Uploads/Films/bavulumda-kuklalar-2019123143116.jpg"},
{"name": "Yarım Gün Ülkesi", "url": "biletinial.com/tiyatro/yarim-gun-ulkesi", "location": "Kültür Merkezi Sahnesi", "city": "Van", "image": "https://d2yj4fhf636aio.cloudfront.net/Uploads/Films/yarim-gun-ulkesic-20191022142352.jpg"},
{"name": "Uğur Böceği Benekli", "url": "biletinial.com/tiyatro/ugur-bocegi-benekli", "location": "Antalya Haşim İşcan K.M  Küçük Salon", "city": "Antalya", "image": "https://d2yj4fhf636aio.cloudfront.net/Uploads/Films/ugur-bocegi-beneklic-2019102895230.jpg"},
{"name": "Tıngır Mıngır Ülke", "url": "biletinial.com/tiyatro/tingiri-mingiri-ulke", "location": "Ahmet Vefik Paşa Bursa Devlet Tiyatrosu", "city": "Bursa", "image": "https://d2yj4fhf636aio.cloudfront.net/Uploads/Films/tingir-mingir-ulke-201912995810.jpg"},
{"name": "Pi Hanımın Tarifsiz Kurabiyeleri", "url": "biletinial.com/tiyatro/pi-hanimin-tarifsiz-kurabiyeleri", "location": "Podyum Sanat Mahal ", "city": "Bursa", "image": "https://d2yj4fhf636aio.cloudfront.net/Uploads/Films/pi-hanimin-tarifsiz-kurabiyeleri-2019112693820.jpg"},
{"name": "Hiçyemez Prenses", "url": "biletinial.com/tiyatro/hic-yemez-prenses", "location": "Pembe Kurbağa Sahnesi", "city": "Ankara", "image": "https://d2yj4fhf636aio.cloudfront.net/Uploads/Films/hic-yemez-prenses-2019924175246.png"},
{"name": "Küçük Kız Ve Kelebek", "url": "biletinial.com/tiyatro/kucuk-kiz-ve-kelebek-ekim-sanat", "location": "Ekim Sanat Sahne", "city": "Bursa", "image": "https://d2yj4fhf636aio.cloudfront.net/Uploads/Films/kucuk-kiz-ve-kelebek-20191113112357.jpg"},
{"name": "Pamuk Prenses 7 Cüceler", "url": "biletinial.com/tiyatro/pamuk-prenses-7-cuceler-turnagol", "location": "Torium Sahne", "city": "İstanbul Avrupa", "image": "https://d2yj4fhf636aio.cloudfront.net/Uploads/Films/pamuk-prenses-7-cuceler-2019123125316.jpg"},
{"name": "Thom Pain Hiçbir Şey", "url": "biletinial.com/tiyatro/thom-pain-hicbir-sey", "location": "Ankara Yılmaz Güney Sahnesi", "city": "Ankara", "image": "https://d2yj4fhf636aio.cloudfront.net/Uploads/Films/thom-pain-hicbir-sey-2019108124535.jpg"},
{"name": "Krem Karamel", "url": "biletinial.com/tiyatro/krem-karamel-yakin-tiyatro", "location": "Yakın Sahne", "city": "Ankara", "image": "https://d2yj4fhf636aio.cloudfront.net/Uploads/Films/krem-karamel-201912315936.jpg"},
{"name": "Şirin Adımlar", "url": "biletinial.com/tiyatro/sirin-adimlar-sinemedya", "location": "Panora Sanat Merkezi", "city": "Ankara", "image": "https://d2yj4fhf636aio.cloudfront.net/Uploads/Films/sirin-adimlar-201911516495.jpg"},
{"name": "Kat Malikleri (Doğaçlama Tiyatro Sporu Gösterisi)", "url": "biletinial.com/tiyatro/kat-malikleri-dogaclama-tiyatro-sporu-gosterisi", "location": "Apartman Sahne", "city": "İstanbul Anadolu", "image": "https://d2yj4fhf636aio.cloudfront.net/Uploads/Films/kat-malikleri-dogaclama-tiyatro-sporu-gosterisi-20191261760.jpg"},
{"name": "Nereye", "url": "biletinial.com/tiyatro/nereye-perde-tiyatro", "location": "Ankara Yılmaz Güney Sahnesi", "city": "Ankara", "image": "https://d2yj4fhf636aio.cloudfront.net/Uploads/Films/nereye-2019111124148.jpg"},
{"name": "Salome ve Diğerleri", "url": "biletinial.com/tiyatro/salome-ve-digerleri-koray-tahiron", "location": "Farabi Sahnesi", "city": "Ankara", "image": "https://d2yj4fhf636aio.cloudfront.net/Uploads/Films/salome-ve-digerleri-2019116125257.jpg"},
{"name": "Dansöz", "url": "biletinial.com/tiyatro/dansoz", "location": "Farabi Sahnesi", "city": "Ankara", "image": "https://d2yj4fhf636aio.cloudfront.net/Uploads/Films/dansoz-20191029201517.jpg"},
{"name": "Gökkuşağı Ülkesi", "url": "biletinial.com/tiyatro/gokkusagi-ulkesi", "location": "Konya Devlet Tiyatrosu Sahnesi", "city": "Konya", "image": "https://d2yj4fhf636aio.cloudfront.net/Uploads/Films/gokkusagi-ulkesic-201992702620.jpg"},
{"name": "Çizmeli Kedi", "url": "biletinial.com/tiyatro/cizmeli-kedi", "location": "Erzurum Devlet Tiyatrosu Sahnesi", "city": "Erzurum", "image": "https://d2yj4fhf636aio.cloudfront.net/Uploads/Films/cizmeli-kedic-20191017152527.jpg"},
{"name": "Kendi Gök Kubbemiz Yahya Kemal", "url": "biletinial.com/tiyatro/kendi-gok-kubbemiz", "location": "Üsküdar Stüdyo Sahnesi", "city": "İstanbul Anadolu", "image": "https://d2yj4fhf636aio.cloudfront.net/Uploads/Films/kendi-gok-kubbemiz-20191030233211.jpg"},
{"name": "Kontrabas", "url": "biletinial.com/tiyatro/kontrabas-devlet-tiyatrolari", "location": "Oda Tiyatrosu", "city": "Ankara", "image": "https://d2yj4fhf636aio.cloudfront.net/Uploads/Films/kontrabas-20191113101754.jpg"},
{"name": "Leyla ile Mecnun", "url": "biletinial.com/tiyatro/leyla-ile-mecnun-dt", "location": "Küçük Tiyatro", "city": "Ankara", "image": "https://d2yj4fhf636aio.cloudfront.net/Uploads/Films/leyla-ile-mecnun-20191010134057.jpg"},
{"name": "Temiz Ev", "url": "biletinial.com/tiyatro/temiz-ev", "location": "Şinasi Sahnesi", "city": "Ankara", "image": "https://d2yj4fhf636aio.cloudfront.net/Uploads/Films/temiz-ev-2019118162024.jpg"},
{"name": "Radyo-Yu Hümayun", "url": "biletinial.com/tiyatro/radyo-yu-humayun", "location": "Akün Sahnesi", "city": "Ankara", "image": "https://d2yj4fhf636aio.cloudfront.net/Uploads/Films/radyo-yu-humayun-20191113101849.jpg"},
{"name": "Yanık", "url": "biletinial.com/tiyatro/yanik", "location": "Konak Sahnesi", "city": "İzmir", "image": "https://d2yj4fhf636aio.cloudfront.net/Uploads/Films/yanik-20191127115129.jpg"},
{"name": "Sandalım Kıyıya Bağlı", "url": "biletinial.com/tiyatro/sandalim-kiyiya-bagli", "location": "Karşıyaka Sahnesi", "city": "İzmir", "image": "https://d2yj4fhf636aio.cloudfront.net/Uploads/Films/sandalim-kiyiya-bagli-20191031192555.jpg"},
{"name": "Bir İnce Sızı Nisan 1915", "url": "biletinial.com/tiyatro/bir-ince-sizi-nisan", "location": "Ahmet Vefik Paşa Bursa Devlet Tiyatrosu", "city": "Bursa", "image": "https://d2yj4fhf636aio.cloudfront.net/Uploads/Films/bir-ince-sizi-nisan-1915-2019109103848.jpg"},
{"name": "Kasaplığın Elkitabı", "url": "biletinial.com/tiyatro/kasapligin-elkitabi", "location": "Cevahir Salon 1", "city": "İstanbul Avrupa", "image": "https://d2yj4fhf636aio.cloudfront.net/Uploads/Films/kasapligin-elkitabi-2019103118244.jpg"},
{"name": "Yaşlı Bayanın Ziyareti", "url": "biletinial.com/tiyatro/yasli-bayanin-ziyareti", "location": "Mecidiyeköy Büyük Sahnesi", "city": "İstanbul Avrupa", "image": "https://d2yj4fhf636aio.cloudfront.net/Uploads/Films/yasli-bayanin-ziyareti-20191125115225.png"},
{"name": "Bir Nefes Dede Korkut", "url": "biletinial.com/tiyatro/bir-nefes-dede-korkut", "location": "Mecidiyeköy Stüdyo Sahne(110)", "city": "İstanbul Avrupa", "image": "https://d2yj4fhf636aio.cloudfront.net/Uploads/Films/bir-nefes-dede-korkut-2019104192036.png"},
{"name": "Terörist", "url": "biletinial.com/tiyatro/terorist", "location": "Stüdyo Sahnesi", "city": "Ankara", "image": "https://d2yj4fhf636aio.cloudfront.net/Uploads/Films/terorist-2019917215752.png"},
{"name": "Miletos Güzeli", "url": "biletinial.com/tiyatro/miletos-guzeli", "location": "Adana Sabancı Kültür Merkezi", "city": "Adana", "image": "https://d2yj4fhf636aio.cloudfront.net/Uploads/Films/miletos-guzele-20191127115423.png"},
{"name": "Bir  Delinin  Hatıra  Defteri", "url": "biletinial.com/tiyatro/bir-delinin-hatira-defteri-usak-belediyesi", "location": "Uşak Belediyesi AKM", "city": "Uşak", "image": "https://d2yj4fhf636aio.cloudfront.net/Uploads/Films/bir-delinin-hatira-defteri-2019125154118.jpg"},
{"name": "Piraye", "url": "biletinial.com/tiyatro/piraye-izmir-nhkm", "location": "NHKM İzmir- Konak Halk Sahnesi", "city": "İzmir", "image": "https://d2yj4fhf636aio.cloudfront.net/Uploads/Films/piraye-2019112993548.jpg"},
{"name": "Arınma", "url": "biletinial.com/tiyatro/arinma-drama-kumpanya", "location": "Tatavla Sahne ", "city": "İstanbul Avrupa", "image": "https://d2yj4fhf636aio.cloudfront.net/Uploads/Films/arinma-201988101228.jpg"},
{"name": "Mikrobik İle Gribik", "url": "biletinial.com/tiyatro/mikrobik-ile-gribik", "location": "Kültür Merkezi Sahnesi", "city": "Van", "image": "https://d2yj4fhf636aio.cloudfront.net/Uploads/Films/mikrobik-ile-gribik-2019112818727.jpg"},
{"name": "Hakikat, Elbet Bir Gün", "url": "biletinial.com/tiyatro/hakikat-elbet-birgun-bahcesanat", "location": "Zübeyde Hanım Kültür Merkezi", "city": "Eskişehir", "image": "https://d2yj4fhf636aio.cloudfront.net/Uploads/Films/hakikat-elbet-bir-gun-2019102175022.jpg"},
{"name": "Siyahlı Kadın (Bir Hayalet Oyunu)", "url": "biletinial.com/tiyatro/siyahli-kadin-bir-hayalet-oyunu-dt", "location": "İrfan Şahinbaş", "city": "Ankara", "image": "https://d2yj4fhf636aio.cloudfront.net/Uploads/Films/siyahli-kadin-bir-hayalet-oyunu-2019918171533.jpg"},
{"name": "Otelde Cinayet", "url": "biletinial.com/tiyatro/otelde-cinayet-tiyatrolog", "location": "İsmet İnönü Kültür Merkezi", "city": "İzmir", "image": "https://d2yj4fhf636aio.cloudfront.net/Uploads/Films/otelde-cinayet-2019101620338.jpg"},
{"name": "Karan'ın Mektubu", "url": "biletinial.com/tiyatro/karanin-mektubu-inhkm", "location": "NHKM İzmir- Konak Halk Sahnesi", "city": "İzmir", "image": "https://d2yj4fhf636aio.cloudfront.net/Uploads/Films/karanin-mektubu-201911301733.jpg"},
{"name": "Cerrah", "url": "biletinial.com/tiyatro/cerrah", "location": "Tiyatro Kafe", "city": "Ankara", "image": "https://d2yj4fhf636aio.cloudfront.net/Uploads/Films/cerrah-201911181722.jpg"},
{"name": "Şirket", "url": "biletinial.com/tiyatro/sirket", "location": "1001 sanat", "city": "İstanbul Avrupa", "image": "https://d2yj4fhf636aio.cloudfront.net/Uploads/Films/sirket-201911116719.jpg"},
{"name": "Kapılar", "url": "biletinial.com/tiyatro/kapilar", "location": "Feraizcizade Oda Tiyatrosu", "city": "Bursa", "image": "https://d2yj4fhf636aio.cloudfront.net/Uploads/Films/kapilar-20191089391.jpg"},
{"name": "Şapka", "url": "biletinial.com/tiyatro/sapka", "location": "Erzurum Devlet Tiyatrosu Sahnesi", "city": "Erzurum", "image": "https://d2yj4fhf636aio.cloudfront.net/Uploads/Films/sapka-2019111175722.jpg"},
{"name": "Kasetçi", "url": "biletinial.com/tiyatro/kasetci", "location": "Konya Devlet Tiyatrosu Sahnesi", "city": "Konya", "image": "https://d2yj4fhf636aio.cloudfront.net/Uploads/Films/kasetci-20199270311.jpg"},
{"name": "Karar", "url": "biletinial.com/tiyatro/karar", "location": "Cahit Sıtkı Tarancı K.M Orhan Asena Tribün", "city": "Diyarbakır", "image": "https://d2yj4fhf636aio.cloudfront.net/Uploads/Films/karar-20191031153956.jpg"},
{"name": "İnsan Sesi", "url": "biletinial.com/tiyatro/insan-sesi", "location": "Atapark Haluk Ongan Sahnesi", "city": "Trabzon", "image": "https://d2yj4fhf636aio.cloudfront.net/Uploads/Films/insan-sesi-20191125153210.png"},
{"name": "Açık Sahne (Doğaçlama Tiyatro Gösterisi)", "url": "biletinial.com/tiyatro/acik-sahne-dogaclama-tiyatro-gosterisi", "location": "Apartman Sahne", "city": "İstanbul Anadolu", "image": "https://d2yj4fhf636aio.cloudfront.net/Uploads/Films/acik-sahne-dogaclama-tiyatro-gosterisi-201912516524.jpg"},
{"name": "Gel Bi Konuşalım", "url": "biletinial.com/tiyatro/gel-bi-konusalim-koray-tahir-on", "location": "Farabi Sahnesi", "city": "Ankara", "image": "https://d2yj4fhf636aio.cloudfront.net/Uploads/Films/gel-bi-konusalim-2019125103158.jpg"},
{"name": "Cimri", "url": "biletinial.com/tiyatro/cimri-devlet-tiyatrosu", "location": "Büyük Tiyatro", "city": "Ankara", "image": "https://d2yj4fhf636aio.cloudfront.net/Uploads/Films/cimri-2019926192630.jpg"},
{"name": "Oblomovlaşma", "url": "biletinial.com/tiyatro/oblomovlasma-ekim-sanat", "location": "Ekim Sanat Meydan Sahne", "city": "Bursa", "image": "https://d2yj4fhf636aio.cloudfront.net/Uploads/Films/oblomovlasma-20191119185633.jpg"},
{"name": "Müfettiş - Tiyatro Şebekesi", "url": "biletinial.com/tiyatro/mufettis-perdesiz-sanat", "location": "Perdesiz Sahne", "city": "İstanbul Anadolu", "image": "https://d2yj4fhf636aio.cloudfront.net/Uploads/Films/mufettis-tiyatro-sebekesi-2019111910918.jpg"},
{"name": "Haftanın Elemanı", "url": "biletinial.com/tiyatro/haftanin-elemani", "location": "İstanbulimpro Sahne", "city": "İstanbul Anadolu", "image": "https://d2yj4fhf636aio.cloudfront.net/Uploads/Films/haftanin-elemani-201912210136.jpg"},
{"name": "Pireli Varyete", "url": "biletinial.com/tiyatro/pireli-varyete-podyum", "location": "Podyum Sanat Mahal ", "city": "Bursa", "image": "https://d2yj4fhf636aio.cloudfront.net/Uploads/Films/pireli-varyete-20191120172957.jpg"},
{"name": "Kostümlü Yeniyıl Çocuk Tiyatrosu", "url": "biletinial.com/tiyatro/kostumlu-yeniyil-cocuk-eglencesi", "location": "Masal Diyarı Çocuk Tiyatrosu", "city": "Denizli", "image": "https://d2yj4fhf636aio.cloudfront.net/Uploads/Films/kostumlu-yeniyil-cocuk-tiyatrosu-2019112711144.jpg"},
{"name": "Kırmızı Başlıklı Kız Kim?", "url": "biletinial.com/tiyatro/kirmizi-baslikli-kiz-kim-de-yapim", "location": "Kadıköy Caddebostan K.M A Salonu", "city": "İstanbul Anadolu", "image": "https://d2yj4fhf636aio.cloudfront.net/Uploads/Films/kirmizi-baslikli-kiz-kim-20191122173244.jpg"},
{"name": "Kendimi Çalıyorum", "url": "biletinial.com/tiyatro/kendimi-caliyorum", "location": "Bodrum Deneme Sahnesi", "city": "Muğla", "image": "https://d2yj4fhf636aio.cloudfront.net/Uploads/Films/kendimi-caliyorum-201910321022.jpg"},
{"name": "Abur Cubur Show", "url": "biletinial.com/tiyatro/abur-cubur-show-inax-medya", "location": "BKM Mutfak Kıbrıs", "city": "Kıbrıs", "image": "https://d2yj4fhf636aio.cloudfront.net/Uploads/Films/abur-cubur-show-2019128172910.jpeg"},
{"name": "Kozmik Yaralar", "url": "biletinial.com/tiyatro/kozmik-yaralar-podyum-sanat", "location": "Podyum Sanat Mahal ", "city": "Bursa", "image": "https://d2yj4fhf636aio.cloudfront.net/Uploads/Films/kozmik-yaralar-2019112516341.jpg"},
{"name": "Böyledir Bizim Sevdamız", "url": "biletinial.com/tiyatro/boyledir-bizim-sevdamiz", "location": "Atatürk Kültür Sanat ve Kongre Mrk.", "city": "Eskişehir", "image": "https://d2yj4fhf636aio.cloudfront.net/Uploads/Films/boyledir-bizim-sevdamiz-2019101716151.jpg"},
{"name": "Sütten Kesilmek", "url": "biletinial.com/tiyatro/sutten-kesilmek-sahne367", "location": "Sahne 367", "city": "Ankara", "image": "https://d2yj4fhf636aio.cloudfront.net/Uploads/Films/sutten-kesilmek-20191231036.jpg"},
{"name": "Pal Sokağı Çocukları", "url": "biletinial.com/tiyatro/pal-sokagi-dt", "location": "Cahit Sıtkı Tarancı K.M Orhan Asena Sahnesi", "city": "Diyarbakır", "image": "https://d2yj4fhf636aio.cloudfront.net/Uploads/Films/pal-sokagi-201911221949.jpg"},
{"name": "Palto", "url": "biletinial.com/tiyatro/palto-koray-tahir-on", "location": "Farabi Sahnesi", "city": "Ankara", "image": "https://d2yj4fhf636aio.cloudfront.net/Uploads/Films/palto-2019125103121.jpg"},
{"name": "İki Köyün Masalı", "url": "biletinial.com/tiyatro/iki-koyun-masali", "location": "Karşıyaka Sahnesi", "city": "İzmir", "image": "https://d2yj4fhf636aio.cloudfront.net/Uploads/Films/iki-koyun-masalic-2019101234743.jpg"},
{"name": "Korku", "url": "biletinial.com/tiyatro/korku", "location": "Caddebostan Kültür Merkezi B Salonu", "city": "İstanbul Anadolu", "image": "https://d2yj4fhf636aio.cloudfront.net/Uploads/Films/korku-201910311735.jpg"},
{"name": "Bremen Mızıkacıları", "url": "biletinial.com/tiyatro/bremen-mizikacilari-tiyatro-mie", "location": "Müşfik Kenter Salonu", "city": "İstanbul Avrupa", "image": "https://d2yj4fhf636aio.cloudfront.net/Uploads/Films/bremen-mizikacilari-20191026152343.jpg"},
{"name": "Altın Elma", "url": "biletinial.com/tiyatro/altin-elma-koray-tahir-on", "location": "Farabi Sahnesi", "city": "Ankara", "image": "https://d2yj4fhf636aio.cloudfront.net/Uploads/Films/altin-elma-2019126124131.jpg"},
{"name": "Topuklu Terlik Süt Yapar - Gala", "url": "biletinial.com/tiyatro/topuklu-terlik-sut-yapar-6-7-aralik", "location": "Podyum Sanat Mahal ", "city": "Bursa", "image": "https://d2yj4fhf636aio.cloudfront.net/Uploads/Films/topuklu-terlik-sut-yapar-20191011145253.jpg"},
{"name": "Nasreddin Hoca Çocukların Dünyasında", "url": "biletinial.com/tiyatro/nasreddin-hoca-cocuklarin-dunyasinda", "location": "Müşfik Kenter Salonu", "city": "İstanbul Avrupa", "image": "https://d2yj4fhf636aio.cloudfront.net/Uploads/Films/nasreddin-hoca-cocuklarin-dunyasinda-20191028161636.png"},
{"name": "Korku", "url": "biletinial.com/tiyatro/korku", "location": "Ekim Sanat Atölye", "city": "Bursa", "image": "https://d2yj4fhf636aio.cloudfront.net/Uploads/Films/korku-201910311735.jpg"},
{"name": "Akciğer", "url": "biletinial.com/tiyatro/akciger", "location": "Podyum Sanat Mahal ", "city": "Bursa", "image": "https://d2yj4fhf636aio.cloudfront.net/Uploads/Films/akciger-2019111173455.jpg"},
{"name": "Kayıtsız", "url": "biletinial.com/tiyatro/kayitsiz-bachce-sanat", "location": "Zübeyde Hanım Kültür Merkezi", "city": "Eskişehir", "image": "https://d2yj4fhf636aio.cloudfront.net/Uploads/Films/kayitsiz-2019111994940.jpg"},
{"name": "\"Ormantik Komedi\"", "url": "biletinial.com/tiyatro/ormantik-komedi-bolu-kultur-sanat", "location": "Bolu İl Kültür ve Turizm Müdürlüğü Tiyatro Salonu", "city": "Bolu", "image": "https://d2yj4fhf636aio.cloudfront.net/Uploads/Films/ormantik-komedi-20191231651.jpg"},
{"name": "Seninle Evlenir Miyim ?", "url": "biletinial.com/tiyatro/seninle-evlenir-miyim-ons-yapim", "location": "BAOB Oditoryum", "city": "Bursa", "image": "https://d2yj4fhf636aio.cloudfront.net/Uploads/Films/seninle-evlenir-miyim-201911591927.jpg"},
{"name": "Evdeki Hesap Çarşıya Uymaz", "url": "biletinial.com/tiyatro/evdeki-hesap-carsiya-uymaz-tiyatro-matine-suare", "location": "Burdur Öğretmen Evi Kültür Merkezi", "city": "Burdur", "image": "https://d2yj4fhf636aio.cloudfront.net/Uploads/Films/evdeki-hesap-carsiya-uymaz-20191126112417.png"},
{"name": "Evdeki Hesap Çarşıya Uymaz", "url": "biletinial.com/tiyatro/evdeki-hesap-carsiya-uymaz-tiyatro-matine-suare", "location": "Isparta Kocatepe Kültür Merkezi", "city": "Isparta", "image": "https://d2yj4fhf636aio.cloudfront.net/Uploads/Films/evdeki-hesap-carsiya-uymaz-20191126112417.png"},
{"name": "Heidi- Tiyatro Mie", "url": "biletinial.com/tiyatro/heidi-tiyatro-mie", "location": "Müşfik Kenter Salonu", "city": "İstanbul Avrupa", "image": "https://d2yj4fhf636aio.cloudfront.net/Uploads/Films/heidi-tiyatro-mie-2019103095056.png"},
{"name": "Dönme Dolap", "url": "biletinial.com/tiyatro/donme-dolap-podyum-sanat-mahal", "location": "Podyum Sanat Mahal ", "city": "Bursa", "image": "https://d2yj4fhf636aio.cloudfront.net/Uploads/Films/donme-dolap-201912617384.jpg"},
{"name": "Ran", "url": "biletinial.com/tiyatro/ran-entropi-sahne", "location": "KKM Gönül Ülkü Gazanfer Özcan Sahnesi", "city": "İstanbul Anadolu", "image": "https://d2yj4fhf636aio.cloudfront.net/Uploads/Films/ran-201911209558.jpg"},
{"name": "Bence Hiç Komik Değil", "url": "biletinial.com/tiyatro/bence-hic-komik-degil", "location": "Kadıköy Halk Eğitim Sahnesi", "city": "İstanbul Anadolu", "image": "https://d2yj4fhf636aio.cloudfront.net/Uploads/Films/bence-hic-komik-degil-201992121927.png"},
{"name": "Otelde Cinayet", "url": "biletinial.com/tiyatro/otelde-cinayet-tiyatrolog", "location": "Hatay Kültür Merkezi", "city": "Hatay", "image": "https://d2yj4fhf636aio.cloudfront.net/Uploads/Films/otelde-cinayet-2019101620338.jpg"},
{"name": "Kral Şakir -  Uzayda Şamata", "url": "biletinial.com/tiyatro/kral-sakir-uzayda-samata-inax-medya", "location": "Yakın Doğu Üniversitesi Akkm", "city": "Kıbrıs", "image": "https://d2yj4fhf636aio.cloudfront.net/Uploads/Films/kral-sakir-uzayda-samata-201912817599.jpg"},
{"name": "Alis Harikalar Diyarında", "url": "biletinial.com/tiyatro/alis-harikalar-diyarinda-tiyatro-mie", "location": "Müşfik Kenter Salonu", "city": "İstanbul Avrupa", "image": "https://d2yj4fhf636aio.cloudfront.net/Uploads/Films/alis-harikalar-diyarinda-20191026153822.jpg"},
{"name": "Teftişör", "url": "biletinial.com/tiyatro/teftisor", "location": "Podyum Sanat Mahal ", "city": "Bursa", "image": "https://d2yj4fhf636aio.cloudfront.net/Uploads/Films/teftisor-201911261015.jpg"},
{"name": "Romantizma - Bir Evlilik Hastalığı", "url": "biletinial.com/tiyatro/romantizma-anil-medya", "location": "Bursa Akademik Odalar Birliği Oditoryum", "city": "Bursa", "image": "https://d2yj4fhf636aio.cloudfront.net/Uploads/Films/romantizma-bir-evlilik-hastaligi-2019127122548.jpg"},
{"name": "İtiraz Ediyorum Tiyatro Oyunu", "url": "biletinial.com/tiyatro/itiraz-ediyorum-ons-yapim", "location": "BAOB Oditoryum", "city": "Bursa", "image": "https://d2yj4fhf636aio.cloudfront.net/Uploads/Films/itiraz-ediyorum-tiyatro-oyunu-20191126123259.jpg"},
{"name": "Sekreter", "url": "biletinial.com/tiyatro/sekreter-bilgi-altsahne", "location": "Eskişehir Zübeyde Hanım Kültür Merkezi", "city": "Eskişehir", "image": "https://d2yj4fhf636aio.cloudfront.net/Uploads/Films/sekreter-2019106205612.png"},
{"name": "Sekreter", "url": "biletinial.com/tiyatro/sekreter-bilgi-altsahne", "location": "Ekim Sanat Atölye", "city": "Bursa", "image": "https://d2yj4fhf636aio.cloudfront.net/Uploads/Films/sekreter-2019106205612.png"},
{"name": "Hanım Efendi", "url": "biletinial.com/tiyatro/hanim-efendi-inax-medya", "location": "Yakın Doğu Üniversitesi Akkm.", "city": "Kıbrıs", "image": "https://d2yj4fhf636aio.cloudfront.net/Uploads/Films/hanim-efendi-201912992030.jpg"},
{"name": "Mahzuni Şerif-", "url": "biletinial.com/tiyatro/mahzuni-serif-ankara-birlik-tiyatro", "location": "Eskişehir Zübeyde Hanım Kültür Merkezi", "city": "Eskişehir", "image": "https://d2yj4fhf636aio.cloudfront.net/Uploads/Films/mahzuni-serif-201910711734.jpg"},
{"name": "İtiraz Ediyorum", "url": "biletinial.com/tiyatro/itiraz-ediyorum-bolu-kultur-sanat", "location": "Bolu İl Kültür ve Turizm Müdürlüğü Tiyatro Salonu", "city": "Bolu", "image": "https://d2yj4fhf636aio.cloudfront.net/Uploads/Films/itiraz-ediyorum-20191014105735.jpg"}
]